[{"supermarket_name": "جانبو شعبان اراک (همواره تخفیف)", "lat": 34.0772363, "lng": 49.6768981, "products": ["بستنی چوبی یخی بلوبری جیتو کاله 64 گرمی", "بستنی چوبی شیری کاله 70 گرمی", "بستنی چوبی وانیلی با روکش شکلات کاله 60 گرمی", "بستنی چوبی قهوه با روکش شیری کاله 85 گرمی", "بستنی لیوانی کاکایویی کاله 50 گرمی", "بستنی چوبی یخی فالوده جیتو کاله 64 گرمی", "بستنی وانیلی کاله 1 لیتری", "بستنی شکلاتی کاله 1 لیتری", "بستنی چوبی عروسکی کاله 70 گرمی", "بستنی چوبی دبل چاکلت اسپیتامن کاله 80 گرمی", "بستنی شیری شکلاتی چوبی کاله (75 گرم)", "بستنی چوبی شکلاتی کاله 75 گرمی"]}, {"supermarket_name": "سوپرمارکت تاپ ناچ", "lat": 34.086657227063, "lng": 49.673287286723, "products": ["بستنی شکلاتی کاله 1 لیتری"]}, {"supermarket_name": "جانبو امام اراک (همواره تخفیف)", "lat": 34.092736, "lng": 49.678352, "products": ["بستنی چوبی یخی لواشک آلو جیتو کاله 60 گرمی", "بستنی لیوانی معجون کاله 95 گرمی", "بستنی چوبی قهوه با روکش شیری کاله 85 گرمی", "بستنی لیوانی قهوه فوردو کاله 280 گرمی", "بستنی لیوانی کاکایویی کاله 50 گرمی", "بستنی شیری روکشدار شاتوت کاله 80 گرمی", "بستنی لیوانی وانیلی کاله 100 گرمی", "بستنی وانیلی کاله 1 لیتری", "بستنی پاستوریزه شیری نارگیلی کاله 57 گرمی", "بستنی شکلاتی کاله 1 لیتری", "بستنی ژلاتو کارامل دلسه دلیچه فوردو کاله 300 گرمی", "بستنی حصیری زعفرانی کاله 75 گرمی", "بستنی چوبی دبل چاکلت اسپیتامن کاله 80 گرمی", "بستنی وانیلی سوربن کاله 70 گرمی", "بستنی شیری شکلاتی چوبی کاله (75 گرم)", "بستنی آلو ژلاتو فوردو کاله 300 گرمی", "بستنی قیفی شکلاتی سوربن کاله 80 گرمی"]}, {"supermarket_name": "فروشگاه هفت محسنی اراک(همواره تخفیف)", "lat": 34.09128325, "lng": 49.693631, "products": ["بستنی لیوانی معجون کاله 95 گرمی", "بستنی تریپل چاکلت فوردو کاله 650 گرمی", "بستنی چوبی قهوه با روکش دار شیری کاله 85 گرمی", "بستنی وانیلی با تکه شکلات فوردو کاله 650 گرمی", "بستنی چوبی شکلاتی کاله 75 گرمی"]}, {"supermarket_name": "جانبو نیسانیان اراک (همواره تخفیف)", "lat": 34.08409, "lng": 49.6834, "products": ["بستنی لیوانی معجون کاله 95 گرمی", "بستنی چوبی قهوه با روکش شیری کاله 85 گرمی", "بستنی لیوانی کاکایویی کاله 50 گرمی", "بستنی چوبی یخی فالوده جیتو کاله 64 گرمی", "بستنی لیوانی وانیلی کاله 100 گرمی", "بستنی وانیلی کاله 1 لیتری", "بستنی شکلاتی کاله 1 لیتری", "بستنی حصیری زعفرانی کاله 75 گرمی", "بستنی وانیلی سوربن کاله 70 گرمی", "بستنی آلو ژلاتو فوردو کاله 300 گرمی", "بستنی چوبی شکلاتی کاله 75 گرمی", "بستنی قیفی شکلاتی سوربن کاله 80 گرمی"]}, {"supermarket_name": "فروشگاه هفت بلوار شهدا اراک(همواره تخفیف)", "lat": 34.0988705, "lng": 49.685489, "products": ["بستنی چوبی یخی لواشک آلو جیتو کاله 60 گرمی", "بستنی تریپل چاکلت فوردو کاله 650 گرمی", "بستنی شیری روکشدار شاتوت کاله 80 گرمی", "بستنی قهوه لیوانی کاله 100 گرمی", "بستنی وانیلی با تکه شکلات فوردو کاله 650 گرمی", "بستنی چوبی شکلاتی کاله 75 گرمی"]}, {"supermarket_name": "فروشگاه هفت قایم مقام اراک(همواره تخفیف)", "lat": 34.091524, "lng": 49.687943, "products": ["بستنی چوبی وانیلی با روکش شکلات کاله 60 گرمی", "بستنی تریپل چاکلت فوردو کاله 650 گرمی", "بستنی چوبی قهوه با روکش دار شیری کاله 85 گرمی"]}, {"supermarket_name": "فروشگاه هفت هپکو اراک (همواره تخفیف)", "lat": 34.089976, "lng": 49.719127, "products": ["بستنی تریپل چاکلت فوردو کاله 650 گرمی", "بستنی چوبی قهوه با روکش دار شیری کاله 85 گرمی", "بستنی چوبی شکلاتی کاله 75 گرمی"]}, {"supermarket_name": "سوپرمارکت سورنا", "lat": 34.0691607, "lng": 49.6532344, "products": ["بستنی وانیلی کاله 1 لیتری", "بستنی شکلاتی کاله 1 لیتری"]}, {"supermarket_name": "فروشگاه هفت شهرک قایم اراک (همواره تخفیف)", "lat": 34.118596, "lng": 49.69334, "products": ["بستنی چوبی یخی پرتقالی جیتو کاله 70 گرمی", "بستنی چوبی یخی لواشک آلو جیتو کاله 60 گرمی", "بستنی تریپل چاکلت فوردو کاله 650 گرمی", "بستنی شیری روکشدار شاتوت کاله 80 گرمی", "بستنی چوبی قهوه با روکش دار شیری کاله 85 گرمی", "بستنی قهوه لیوانی کاله 100 گرمی", "بستنی وانیلی با تکه شکلات فوردو کاله 650 گرمی", "بستنی چوبی شکلاتی کاله 75 گرمی", "بستنی لیوانی شکلاتی کاله 100 گرمی"]}, {"supermarket_name": "جانبو فاطمیه اراک (همواره تخفیف)", "lat": 34.100778, "lng": 49.727389, "products": ["بستنی چوبی یخی پرتقالی جیتو کاله 70 گرمی", "بستنی چوبی یخی لواشک آلو جیتو کاله 60 گرمی", "بستنی لیوانی قهوه کاله 80 گرمی", "بستنی چوبی یخی بلوبری جیتو کاله 64 گرمی", "بستنی لیوانی معجون کاله 95 گرمی", "بستنی چوبی قهوه با روکش شیری کاله 85 گرمی", "بستنی لیوانی کاکایویی کاله 50 گرمی", "بستنی چوبی یخی فالوده جیتو کاله 64 گرمی", "بستنی لیوانی وانیلی کاله 100 گرمی", "بستنی وانیلی کاله 1 لیتری", "بستنی چوبی عروسکی کاله 70 گرمی", "بستنی چوبی دبل چاکلت اسپیتامن کاله 80 گرمی"]}]