[{"supermarket_name": "فروشگاه هفت محسنی اراک(همواره تخفیف)", "lat": 34.09128325, "lng": 49.693631, "products": ["بستنی چوبی وانیلی با روکش شکلات کاله 60 گرمی", "بستنی لیوانی معجون کاله 95 گرمی", "بستنی تریپل چاکلت فوردو کاله 650 گرمی", "بستنی چوبی قهوه با روکش دار شیری کاله 85 گرمی", "بستنی وانیلی با تکه شکلات فوردو کاله 650 گرمی", "بستنی چوبی شکلاتی کاله 75 گرمی"]}, {"supermarket_name": "فروشگاه هفت بلوار شهدا اراک(همواره تخفیف)", "lat": 34.0988705, "lng": 49.685489, "products": ["بستنی چوبی یخی لواشک آلو جیتو کاله 60 گرمی", "بستنی وانیلی با تکه شکلات فوردو کاله 650 گرمی", "بستنی چوبی شکلاتی کاله 75 گرمی"]}, {"supermarket_name": "فروشگاه هفت قایم مقام اراک(همواره تخفیف)", "lat": 34.091524, "lng": 49.687943, "products": ["بستنی چوبی وانیلی با روکش شکلات کاله 60 گرمی", "بستنی شیری روکشدار شاتوت کاله 80 گرمی", "بستنی چوبی قهوه با روکش دار شیری کاله 85 گرمی", "بستنی چوبی شکلاتی کاله 75 گرمی"]}, {"supermarket_name": "فروشگاه هفت هپکو اراک (همواره تخفیف)", "lat": 34.089976, "lng": 49.719127, "products": ["بستنی چوبی یخی لواشک آلو جیتو کاله 60 گرمی", "بستنی شیری روکشدار شاتوت کاله 80 گرمی", "بستنی چوبی قهوه با روکش دار شیری کاله 85 گرمی", "بستنی قهوه لیوانی کاله 100 گرمی"]}, {"supermarket_name": "سوپرمارکت هایپر بامو مارکت", "lat": 34.0935588, "lng": 49.7157048, "products": ["بستنی چوبی وانیلی با روکش شکلات کاله 60 گرمی", "بستنی چوبی شکلاتی میلکی کاله 70 گرمی", "بستنی تریپل چاکلت فوردو کاله 650 گرمی", "بستنی چوبی قهوه با روکش دار شیری کاله 85 گرمی", "بستنی لیوانی شکلاتی بلیسیمو کاله پرو 100 گرمی", "بستنی آدامسی جرقه ای کاله 55 گرمی", "بستنی لیوانی لیمو چیز کیکی بلیسیمو کاله 100 گرمی", "بستنی چوبی عروسکی کاله 70 گرمی", "بستنی چوبی دبل چاکلت اسپیتامن کاله 80 گرمی", "بستنی چوبی هندوانه کاله 58 گرمی", "بستنی چوبی بادام زمینی و کارامل اسپیتامن کاله 85 گرمی", "بستنی چوبی وانیلی بلوبری کاله 60 گرمی", "بستنی لیوانی وانیلی بلیسیمو کاله پرو 100 گرمی", "بستنی طالبی كاله 1 لیتری", "بستنی پرتقالی چوبی کاله (70 گرم)", "بستنی چوبی یخی فالوده ای جیتو کاله 70 گرمی", "بستنی چوبی شکلاتی کاله 60 گرمی", "بستنی وانیلی کاله 1 لیتری", "بستنی توت فرنگی کاله (یک لیتر)", "بستنی زعفرانی کاله (یک لیتر)", "پرو بستنی شکلات کاله 60 گرمی", "بستنی چای لوندرکاله 100 گرمی", "بستنی قیفی شکلاتی سوربن کاله 80 گرمی", "بستنی قیفی وانیلی سوربن کاله 80 گرمی", "بستنی چوبی کیم رندو کاله 80 گرمی"]}, {"supermarket_name": "سوپرمارکت تاپ ناچ", "lat": 34.086657227063, "lng": 49.673287286723, "products": ["بستنی شکلاتی کاله 1 لیتری"]}, {"supermarket_name": "سوپرمارکت سورنا", "lat": 34.0691607, "lng": 49.6532344, "products": ["بستنی وانیلی کاله 1 لیتری", "بستنی شکلاتی کاله 1 لیتری"]}, {"supermarket_name": "فروشگاه هفت شهرک قایم اراک (همواره تخفیف)", "lat": 34.118596, "lng": 49.69334, "products": ["بستنی چوبی یخی پرتقالی جیتو کاله 70 گرمی", "بستنی چوبی یخی لواشک آلو جیتو کاله 60 گرمی", "بستنی لیوانی قهوه فوردو کاله 280 گرمی", "بستنی تریپل چاکلت فوردو کاله 650 گرمی", "بستنی شیری روکشدار شاتوت کاله 80 گرمی", "بستنی چوبی قهوه با روکش دار شیری کاله 85 گرمی", "بستنی قهوه لیوانی کاله 100 گرمی", "بستنی وانیلی با تکه شکلات فوردو کاله 650 گرمی", "بستنی چوبی شکلاتی کاله 75 گرمی", "بستنی لیوانی شکلاتی کاله 100 گرمی"]}]