[{"supermarket_name": "سوپرمارکت مارکتین", "lat": 28.982354, "lng": 50.837574, "products": ["بستنی وانیلی کاله 1 لیتری", "بستنی توت فرنگی کاله (500 گرم)", "بستنی زعفرانی کاله 1 لیتری"]}, {"supermarket_name": "سوپرمارکت گاندو", "lat": 28.9687918, "lng": 50.8423612, "products": ["بستنی چوبی قهوه با روکش شیری کاله 85 گرمی", "بستنی لیوانی وانیلی بلیسیمو کاله پرو 100 گرمی", "بستنی طالبی كاله 1 لیتری", "بستنی ليوانی شکلاتی پرو کاله 100 گرمی"]}, {"supermarket_name": "سوپرمارکت راسن مارکت", "lat": 28.9614921, "lng": 50.8304626, "products": ["بستنی قیفی شکلاتی سوربن کاله 80 گرمی", "بستنی قیفی وانیلی سوربن کاله 80 گرمی"]}, {"supermarket_name": "سوپرمارکت هایپر طلایی", "lat": 28.958151, "lng": 50.830615, "products": ["بستنی لیوانی لیمو چیز کیکی بلیسیمو کاله 100 گرمی", "بستنی لیوانی وانیلی بلیسیمو کاله پرو 100 گرمی", "پرو بستنی شکلات کاله 60 گرمی"]}, {"supermarket_name": "سوپرمارکت امایس عاشوری", "lat": 28.957382771374, "lng": 50.830131992698, "products": ["بستنی تریپل چاکلت فوردو کاله 650 گرمی", "بستنی لیوانی لیمو چیز کیکی بلیسیمو کاله 100 گرمی", "بستنی چوبی دبل چاکلت اسپیتامن کاله 80 گرمی", "بستنی چوبی هندوانه کاله 58 گرمی", "بستنی چوبی وانیلی بلوبری کاله 60 گرمی", "بستنی زعفرانی با پسته و خامه فوردو کاله 650 گرمی", "بستنی وانیلی با باقلوا کاله 650 گرمی", "بستنی لیوانی وانیلی بلیسیمو کاله پرو 100 گرمی", "بستنی وانیلی کاله 1.1 کیلوگرمی", "بستنی لیوانی توت وحشی بلیسیمو کاله پرو 100 گرمی", "بستنی میوه های فصل کاله 750 گرمی", "بستنی وانیلی با شهد توت فرنگی پذیرایی کاله (500 گرم)", "بستنی روکش دار شکلات و بادام اسپیتامن مینی مگنوم کاله 54 گرمی", "بستنی ليوانی شکلاتی پرو کاله 100 گرمی"]}]