[{"supermarket_name": "فروشگاه هفت بهداری کرمانشاه (همواره تخفیف)", "lat": 34.358673, "lng": 47.075897, "products": ["بستنی چوبی یخی لواشک آلو جیتو کاله 60 گرمی", "بستنی چوبی قهوه با روکش دار شیری کاله 85 گرمی", "بستنی وانیلی با تکه شکلات فوردو کاله 650 گرمی", "بستنی چوبی شکلاتی کاله 75 گرمی"]}, {"supermarket_name": "فروشگاه هفت باریکه کرمانشاه (همواره تخفیف)", "lat": 34.326763, "lng": 47.084759, "products": ["بستنی چوبی یخی لواشک آلو جیتو کاله 60 گرمی", "بستنی لیوانی معجون کاله 95 گرمی", "بستنی شیری روکشدار شاتوت کاله 80 گرمی", "بستنی وانیلی با تکه شکلات فوردو کاله 650 گرمی", "بستنی چوبی شکلاتی کاله 75 گرمی"]}, {"supermarket_name": "فروشگاه هفت گذرنامه کرمانشاه(همواره تخفیف)", "lat": 34.351871, "lng": 47.09264, "products": ["بستنی چوبی وانیلی با روکش شکلات کاله 60 گرمی", "بستنی لیوانی معجون کاله 95 گرمی", "بستنی لیوانی قهوه فوردو کاله 280 گرمی", "بستنی تریپل چاکلت فوردو کاله 650 گرمی", "بستنی چوبی قهوه با روکش دار شیری کاله 85 گرمی", "بستنی چوبی شکلاتی کاله 75 گرمی"]}, {"supermarket_name": "فروشگاه هفت ارشاد کرمانشاه (همواره تخفیف)", "lat": 34.335951, "lng": 47.073412, "products": ["بستنی چوبی یخی لواشک آلو جیتو کاله 60 گرمی", "بستنی چوبی وانیلی با روکش شکلات کاله 60 گرمی", "بستنی لیوانی معجون کاله 95 گرمی", "بستنی شیری روکشدار شاتوت کاله 80 گرمی", "بستنی چوبی قهوه با روکش دار شیری کاله 85 گرمی", "بستنی قهوه لیوانی کاله 100 گرمی", "بستنی چوبی شکلاتی کاله 75 گرمی"]}, {"supermarket_name": "فروشگاه هفت فاز یک فرهنگیان کرمانشاه (همواره تخفیف)", "lat": 34.334062, "lng": 47.066462, "products": ["بستنی چوبی یخی لواشک آلو جیتو کاله 60 گرمی", "بستنی لیوانی معجون کاله 95 گرمی", "بستنی تریپل چاکلت فوردو کاله 650 گرمی", "بستنی شیری روکشدار شاتوت کاله 80 گرمی", "بستنی چوبی قهوه با روکش دار شیری کاله 85 گرمی", "بستنی چوبی شکلاتی کاله 75 گرمی"]}, {"supermarket_name": "فروشگاه هفت غدیر کرمانشاه (همواره تخفیف)", "lat": 34.308547, "lng": 47.067582, "products": ["بستنی چوبی یخی پرتقالی جیتو کاله 70 گرمی", "بستنی شیری روکشدار شاتوت کاله 80 گرمی", "بستنی چوبی قهوه با روکش دار شیری کاله 85 گرمی", "بستنی قهوه لیوانی کاله 100 گرمی", "بستنی لیوانی شکلاتی فوردو کاله 280 گرمی"]}, {"supermarket_name": "جانبو شکریه کرمانشاه (همواره تخفیف)", "lat": 34.3535476, "lng": 47.0686234, "products": ["بستنی چوبی شیری کاله 70 گرمی", "بستنی چوبی وانیلی با روکش شکلات کاله 60 گرمی", "بستنی لیوانی معجون کاله 95 گرمی", "بستنی چوبی قهوه با روکش شیری کاله 85 گرمی", "بستنی لیوانی قهوه فوردو کاله 280 گرمی", "بستنی لیوانی کاکایویی کاله 50 گرمی", "بستنی چوبی یخی فالوده جیتو کاله 64 گرمی", "بستنی شکلاتی کاله 1 لیتری", "بستنی چوبی عروسکی کاله 70 گرمی", "بستنی حصیری زعفرانی کاله 75 گرمی", "بستنی چوبی دبل چاکلت اسپیتامن کاله 80 گرمی", "بستنی ژلاتو زعفران ، خامه و زرشک پسته فوردو کاله 300 گرمی", "بستنی شیری شکلاتی چوبی کاله (75 گرم)", "گز بستنی وانیلی روکش شکلات و پسته کاله (70 گرم)", "بستنی پذیرایی شکلاتی با ریپل شکلاتی کاله 500 گرمی"]}, {"supermarket_name": "سوپرمارکت هایپر الی", "lat": 34.3374076, "lng": 47.1084226, "products": ["پروبستنی چوبی قهوه کاله پرو 60 گرمی", "بستنی چوبی یخی زرشک جیتو کاله 70 گرمی", "بستنی وانیلی کاله 1 لیتری", "بستنی لیوانی لیمو چیز کیکی بلیسیمو کاله 100 گرمی", "بستنی چوبی وانیلی بلوبری کاله 60 گرمی", "بستنی وانیلی با باقلوا کاله 650 گرمی", "بستنی لیوانی وانیلی بلیسیمو کاله پرو 100 گرمی", "بستنی لیوانی توت وحشی بلیسیمو کاله پرو 100 گرمی", "بستنی ليوانی شکلاتی پرو کاله 100 گرمی", "پرو بستنی شکلات کاله 60 گرمی"]}, {"supermarket_name": "فروشگاه هفت سعدی کرمانشاه (همواره تخفیف)", "lat": 34.30664, "lng": 47.05512, "products": ["بستنی لیوانی قهوه فوردو کاله 280 گرمی", "بستنی چوبی قهوه با روکش دار شیری کاله 85 گرمی", "بستنی وانیلی با تکه شکلات فوردو کاله 650 گرمی", "بستنی چوبی شکلاتی کاله 75 گرمی"]}, {"supermarket_name": "فروشگاه هفت خیام کرمانشاه (همواره تخفیف)", "lat": 34.306182, "lng": 47.050494, "products": ["بستنی چوبی یخی لواشک آلو جیتو کاله 60 گرمی", "بستنی لیوانی معجون کاله 95 گرمی", "بستنی شیری روکشدار شاتوت کاله 80 گرمی", "بستنی چوبی قهوه با روکش دار شیری کاله 85 گرمی", "بستنی چوبی شکلاتی کاله 75 گرمی"]}, {"supermarket_name": "سوپرمارکت بسکت", "lat": 34.2934438, "lng": 47.0445872, "products": ["بستنی شکلاتی فوردو کاله 240 گرمی"]}, {"supermarket_name": "سوپرمارکت مُ مُ", "lat": 34.2903389, "lng": 47.036848, "products": ["بستنی وانیلی کاله 1 لیتری", "بستنی لیوانی وانیلی بلیسیمو کاله پرو 100 گرمی"]}, {"supermarket_name": "فروشگاه هفت صدرا کرمانشاه (همواره تخفیف)", "lat": 34.299725, "lng": 47.036147, "products": ["بستنی چوبی یخی پرتقالی جیتو کاله 70 گرمی", "بستنی چوبی وانیلی با روکش شکلات کاله 60 گرمی", "بستنی شیری روکشدار شاتوت کاله 80 گرمی", "بستنی چوبی قهوه با روکش دار شیری کاله 85 گرمی", "بستنی قهوه لیوانی کاله 100 گرمی", "بستنی چوبی شکلاتی کاله 75 گرمی"]}, {"supermarket_name": "فروشگاه هفت شهرک پردیس 2 کرمانشاه (همواره تخفیف)", "lat": 34.30306, "lng": 47.018182, "products": ["بستنی چوبی یخی پرتقالی جیتو کاله 70 گرمی", "بستنی چوبی یخی لواشک آلو جیتو کاله 60 گرمی", "بستنی چوبی وانیلی با روکش شکلات کاله 60 گرمی", "بستنی لیوانی معجون کاله 95 گرمی", "بستنی شیری روکشدار شاتوت کاله 80 گرمی", "بستنی چوبی قهوه با روکش دار شیری کاله 85 گرمی", "بستنی قهوه لیوانی کاله 100 گرمی", "بستنی وانیلی با تکه شکلات فوردو کاله 650 گرمی", "بستنی لیوانی شکلاتی کاله 100 گرمی"]}, {"supermarket_name": "فروشگاه هفت نصر کرمانشاه (همواره تخفیف)", "lat": 34.361322, "lng": 47.148386, "products": ["بستنی چوبی یخی پرتقالی جیتو کاله 70 گرمی", "بستنی چوبی یخی لواشک آلو جیتو کاله 60 گرمی", "بستنی چوبی وانیلی با روکش شکلات کاله 60 گرمی", "بستنی لیوانی معجون کاله 95 گرمی"]}, {"supermarket_name": "فروشگاه هفت کیهانشهر کرمانشاه (همواره تخفیف)", "lat": 34.318621, "lng": 47.120362, "products": ["بستنی چوبی یخی پرتقالی جیتو کاله 70 گرمی", "بستنی چوبی یخی لواشک آلو جیتو کاله 60 گرمی", "بستنی چوبی وانیلی با روکش شکلات کاله 60 گرمی", "بستنی لیوانی معجون کاله 95 گرمی", "بستنی شیری روکشدار شاتوت کاله 80 گرمی", "بستنی چوبی قهوه با روکش دار شیری کاله 85 گرمی", "بستنی قهوه لیوانی کاله 100 گرمی", "بستنی چوبی شکلاتی کاله 75 گرمی"]}, {"supermarket_name": "فروشگاه هفت پرواز کرمانشاه (همواره تخفیف)", "lat": 34.36507, "lng": 47.159139, "products": ["بستنی چوبی وانیلی با روکش شکلات کاله 60 گرمی", "بستنی لیوانی معجون کاله 95 گرمی", "بستنی تریپل چاکلت فوردو کاله 650 گرمی", "بستنی چوبی شکلاتی کاله 75 گرمی"]}]