[{"supermarket_name": "سوپرمارکت هایپر نوین", "lat": 34.554733, "lng": 50.8116, "products": ["بستنی لیوانی قهوه کاله 80 گرمی", "بستنی لیوانی قهوه فوردو کاله 280 گرمی", "بستنی وانیلی کاله 1 لیتری", "بستنی شکلاتی کاله 1 لیتری", "بستنی چوبی زعفرانی با روکش شکلات پسته کاله 80 گرمی", "بستنی چوبی دبل چاکلت اسپیتامن کاله 80 گرمی", "بستنی قهوه با کیک براونی کاله 1 لیتری", "بستنی قیفی شکلاتی کاله 120 گرمی", "بستنی وانیلی با کیک براونی کاله 1 لیتری", "بستنی میوه های قرمز فروتیس کاله 90 گرمی", "بستنی توت فرنگی کاله (500 گرم)", "بستنی طالبی كاله 1 لیتری", "بستنی خانواده انبه كاله ۵۵۰ گرمی", "بستنی زعفرانی کاله 1 لیتری", "بستنی قیفی شکلاتی سوربن کاله 80 گرمی"]}, {"supermarket_name": "سوپرمارکت پارسی", "lat": 34.564741, "lng": 50.817981, "products": ["بستنی تریپل چاکلت فوردو کاله 650 گرمی"]}, {"supermarket_name": "سوپرمارکت بهار (حرم)", "lat": 34.640049, "lng": 50.874442, "products": ["بستنی لیوانی معجون کاله 95 گرمی", "بستنی لیوانی کاکایویی کاله 50 گرمی", "بستنی آدامسی جرقه ای کاله 55 گرمی", "بستنی وانیلی کاکائویی کونگ فو پو کاله (65 گرم)", "بستنی طالبی كاله 1 لیتری", "بستنی خانواده انبه كاله ۵۵۰ گرمی", "بستنی لیوانی کاپوچینو کاله 90 گرمی", "بستنی لیوانی زعفرانی کاله 50 گرمی", "بستنی چوبی عروسکی توپی کاله 50 گرمی"]}, {"supermarket_name": "سوپرمارکت مرسا (پردیسان)", "lat": 34.5474174, "lng": 50.7983608, "products": ["بستنی چوبی یخی پرتقالی جیتو کاله 70 گرمی", "بستنی چوبی یخی لواشک آلو جیتو کاله 60 گرمی", "بستنی لیوانی قهوه کاله 80 گرمی", "بستنی چوبی شیری کاله 70 گرمی", "بستنی چوبی شکلاتی میلکی کاله 70 گرمی", "پروبستنی چوبی قهوه کاله پرو 60 گرمی", "بستنی چوبی قهوه با روکش شیری کاله 85 گرمی", "بستنی لیوانی قهوه فوردو کاله 280 گرمی", "بستنی معجون فوردو کاله 280 گرمی", "بستنی لیوانی وانیلی کاله 100 گرمی", "بستنی پاستوریزه شیری نارگیلی کاله 57 گرمی", "بستنی شکلاتی کاله 1 لیتری", "بستنی آدامسی جرقه ای کاله 55 گرمی", "بستنی قهوه با کیک براونی کاله 1 لیتری", "بستنی وانیلی با کیک براونی کاله 1 لیتری", "بستنی لیوانی شکلاتی فوردو کاله 280 گرمی", "بستنی طالبی كاله 1 لیتری", "بستنی زعفرانی کاله 1 لیتری", "بستنی چوبی روکش دار شکلاتی رندو کاله 80 گرمی"]}, {"supermarket_name": "سوپرمارکت سید", "lat": 34.624289, "lng": 50.885574, "products": ["پروبستنی چوبی قهوه کاله پرو 60 گرمی", "پرو بستنی شکلات کاله 60 گرمی"]}, {"supermarket_name": "سوپرمارکت می مارکت", "lat": 34.600934, "lng": 50.882292, "products": ["بستنی لیوانی قهوه فوردو کاله 280 گرمی", "بستنی وانیلی کاله 1 لیتری", "بستنی شکلاتی کاله 1 لیتری", "بستنی لیوانی لیمو چیز کیکی بلیسیمو کاله 100 گرمی", "بستنی تیرامیسو فوردو کاله 650 گرمی", "بستنی قهوه با کیک براونی کاله 1 لیتری", "بستنی چوبی مینی مگنوم کاله 6 عددی", "بسته ۶ عددی بستنی چوبی بادام زمینی با رگه کارامل اسپیتامن کاله 85 گرمی", "بستنی وانیلی با کیک براونی کاله 1 لیتری", "بستنی پسته ای فوردو کاله 650 گرمی", "بستنی آلو ژلاتو فوردو کاله 300 گرمی", "بستنی وانیلی با باقلوا کاله 650 گرمی", "بستنی توت فرنگی کاله (500 گرم)", "بستنی لیوانی وانیلی بلیسیمو کاله پرو 100 گرمی", "بستنی پذیرایی شکلاتی با ریپل شکلاتی کاله 500 گرمی", "بستنی زعفرانی کاله 1 لیتری", "بستنی وانیلی با شهد توت فرنگی پذیرایی کاله (500 گرم)"]}, {"supermarket_name": "سوپرمارکت چلسی (باجک)", "lat": 34.660331, "lng": 50.906997, "products": ["پروبستنی چوبی قهوه کاله پرو 60 گرمی", "بستنی لیوانی معجون کاله 95 گرمی", "بستنی چوبی قهوه با روکش شیری کاله 85 گرمی", "بستنی لیوانی قهوه فوردو کاله 280 گرمی", "بستنی چوبی زعفرانی با روکش شکلات پسته کاله 80 گرمی", "بستنی چوبی دبل چاکلت اسپیتامن کاله 80 گرمی", "بستنی قهوه با کیک براونی کاله 1 لیتری", "بستنی وانیلی با کیک براونی کاله 1 لیتری", "بستنی چوبی بادام زمینی و کارامل اسپیتامن کاله 85 گرمی", "بستنی لیوانی وانیلی بلیسیمو کاله پرو 100 گرمی", "بستنی پرتقالی چوبی کاله (90 گرم)", "بستنی ليوانی شکلاتی پرو کاله 100 گرمی", "بستنی چای لوندرکاله 100 گرمی", "پرو بستنی شکلات کاله 60 گرمی", "بستنی لیوانی کاپوچینو کاله 90 گرمی"]}, {"supermarket_name": "جانبو دورشهر قم (همواره تخفیف)", "lat": 34.628332945899, "lng": 50.873146160884, "products": ["بستنی چوبی یخی پرتقالی جیتو کاله 70 گرمی", "بستنی چوبی یخی لواشک آلو جیتو کاله 60 گرمی", "بستنی چوبی یخی بلوبری جیتو کاله 64 گرمی", "بستنی چوبی شیری کاله 70 گرمی", "بستنی چوبی قهوه با روکش شیری کاله 85 گرمی", "بستنی لیوانی کاکایویی کاله 50 گرمی", "بستنی چوبی یخی فالوده جیتو کاله 64 گرمی", "بستنی لیوانی وانیلی کاله 100 گرمی", "بستنی پاستوریزه شیری نارگیلی کاله 57 گرمی", "بستنی چوبی عروسکی کاله 70 گرمی", "بستنی حصیری زعفرانی کاله 75 گرمی"]}, {"supermarket_name": "جانبو مالک اشتر قم(همواره تخفیف)", "lat": 34.640663, "lng": 50.859395, "products": ["بستنی چوبی یخی پرتقالی جیتو کاله 70 گرمی", "بستنی چوبی یخی لواشک آلو جیتو کاله 60 گرمی", "بستنی چوبی یخی بلوبری جیتو کاله 64 گرمی", "بستنی چوبی شیری کاله 70 گرمی", "بستنی چوبی وانیلی با روکش شکلات کاله 60 گرمی", "بستنی لیوانی معجون کاله 95 گرمی", "بستنی لیوانی کاکایویی کاله 50 گرمی", "بستنی چوبی یخی فالوده جیتو کاله 64 گرمی", "بستنی شیری روکشدار شاتوت کاله 80 گرمی", "بستنی وانیلی کاله 1 لیتری", "بستنی پاستوریزه شیری نارگیلی کاله 57 گرمی", "بستنی شکلاتی کاله 1 لیتری", "بستنی چوبی عروسکی کاله 70 گرمی", "بستنی شیری شکلاتی چوبی کاله (75 گرم)", "بستنی آلو ژلاتو فوردو کاله 300 گرمی", "گز بستنی وانیلی روکش شکلات و پسته کاله (70 گرم)"]}, {"supermarket_name": "فروشگاه هفت بسیج (همواره تخفیف)", "lat": 34.625957, "lng": 50.884234, "products": ["بستنی چوبی یخی لواشک آلو جیتو کاله 60 گرمی", "بستنی چوبی وانیلی با روکش شکلات کاله 60 گرمی", "بستنی لیوانی معجون کاله 95 گرمی", "بستنی لیوانی قهوه فوردو کاله 280 گرمی", "بستنی شیری روکشدار شاتوت کاله 80 گرمی", "بستنی چوبی قهوه با روکش دار شیری کاله 85 گرمی", "بستنی قهوه لیوانی کاله 100 گرمی", "بستنی چوبی شکلاتی کاله 75 گرمی"]}, {"supermarket_name": "سوپرمارکت پدر خوب", "lat": 34.672023324333, "lng": 50.869933962822, "products": ["بستنی تریپل چاکلت فوردو کاله 650 گرمی", "بستنی وانیلی کاله 1 لیتری", "بستنی كوكي فودرو كاله 650 گرمی", "بسته ۶ عددی بستنی چوبی بادام زمینی با رگه کارامل اسپیتامن کاله 85 گرمی", "بستنی پسته ای فوردو کاله 650 گرمی", "بستنی وانیلی با باقلوا کاله 650 گرمی", "بستنی توت فرنگی کاله (500 گرم)", "بستنی پذیرایی شکلاتی با ریپل شکلاتی کاله 500 گرمی", "بستنی زعفرانی کاله 1 لیتری"]}, {"supermarket_name": "سوپرمارکت هایپر ترنج", "lat": 34.666935, "lng": 50.887799, "products": ["بستنی چوبی یخی پرتقالی جیتو کاله 70 گرمی", "بستنی چوبی یخی لواشک آلو جیتو کاله 60 گرمی", "بستنی چوبی شکلاتی میلکی کاله 70 گرمی", "بستنی لیوانی معجون کاله 95 گرمی", "بستنی لیوانی کاکایویی کاله 50 گرمی", "بستنی تریپل چاکلت فوردو کاله 650 گرمی", "بستنی چوبی یخی شاتوتی کاله 60 گرمی", "بستنی لیوانی وانیلی کاله 100 گرمی", "بستنی وانیلی کاله 1 لیتری", "بستنی شکلاتی کاله 1 لیتری", "بستنی كوكي فودرو كاله 650 گرمی", "بستنی حصیری زعفرانی کاله 75 گرمی", "بستنی چوبی بادام زمینی و کارامل اسپیتامن کاله 85 گرمی", "بستنی لیوانی شکلاتی فوردو کاله 280 گرمی", "بستنی توت فرنگی کاله (500 گرم)", "بستنی طالبی كاله 1 لیتری", "بستنی خانواده انبه كاله ۵۵۰ گرمی", "بستنی پذیرایی شکلاتی با ریپل شکلاتی کاله 500 گرمی", "بستنی لیوانی وانیل توت فرنگی کاله 50 گرمی", "بستنی چوبی تیرامیسو اسپیتامن کاله 82 گرمی"]}, {"supermarket_name": "سوپرمارکت هایپر ۲۸", "lat": 34.664394, "lng": 50.864305, "products": ["پروبستنی چوبی قهوه کاله پرو 60 گرمی", "بستنی لیوانی وانیلی بلیسیمو کاله پرو 100 گرمی", "بستنی لیوانی توت وحشی بلیسیمو کاله پرو 100 گرمی", "بستنی ليوانی شکلاتی پرو کاله 100 گرمی", "پرو بستنی شکلات کاله 60 گرمی"]}, {"supermarket_name": "جانبو عابدی قم (همواره تخفیف)", "lat": 34.674597, "lng": 50.874529, "products": ["بستنی چوبی یخی پرتقالی جیتو کاله 70 گرمی", "بستنی چوبی یخی لواشک آلو جیتو کاله 60 گرمی", "بستنی لیوانی قهوه کاله 80 گرمی", "بستنی چوبی یخی بلوبری جیتو کاله 64 گرمی", "بستنی چوبی شیری کاله 70 گرمی", "بستنی چوبی قهوه با روکش شیری کاله 85 گرمی", "بستنی لیوانی کاکایویی کاله 50 گرمی", "بستنی چوبی یخی فالوده جیتو کاله 64 گرمی", "بستنی شیری روکشدار شاتوت کاله 80 گرمی", "بستنی لیوانی وانیلی کاله 100 گرمی", "بستنی وانیلی کاله 1 لیتری", "بستنی پاستوریزه شیری نارگیلی کاله 57 گرمی", "بستنی شکلاتی کاله 1 لیتری", "بستنی چوبی عروسکی کاله 70 گرمی", "بستنی حصیری زعفرانی کاله 75 گرمی", "بستنی وانیلی سوربن کاله 70 گرمی", "بستنی شیری شکلاتی چوبی کاله (75 گرم)", "گز بستنی وانیلی روکش شکلات و پسته کاله (70 گرم)"]}, {"supermarket_name": "سوپرمارکت جم", "lat": 34.610577, "lng": 50.851974, "products": ["بستنی لیوانی معجون کاله 95 گرمی", "بستنی چوبی قهوه با روکش شیری کاله 85 گرمی", "بستنی چوبی شکلاتی کاله 85 گرمی"]}, {"supermarket_name": "سوپرمارکت سحر (زنبیل آباد)", "lat": 34.605393, "lng": 50.861236, "products": ["بسته ۶ عددی بستنی چوبی بادام زمینی با رگه کارامل اسپیتامن کاله 85 گرمی"]}, {"supermarket_name": "سوپرمارکت هپی مارکت", "lat": 34.599518, "lng": 50.84057, "products": ["پروبستنی چوبی قهوه کاله پرو 60 گرمی", "بستنی لیوانی قهوه فوردو کاله 280 گرمی", "بستنی لیوانی لیمو چیز کیکی بلیسیمو کاله 100 گرمی", "بستنی چوبی دبل چاکلت اسپیتامن کاله 80 گرمی", "بستنی لیوانی وانیلی بلیسیمو کاله پرو 100 گرمی", "پرو بستنی شکلات کاله 60 گرمی", "بستنی ليوانی شکلاتی پرو کاله 100 گرمی"]}, {"supermarket_name": "فروشگاه هفت صفاشهر (همواره تخفیف)", "lat": 34.609475, "lng": 50.84006, "products": ["بستنی چوبی وانیلی با روکش شکلات کاله 60 گرمی", "بستنی لیوانی معجون کاله 95 گرمی", "بستنی لیوانی قهوه فوردو کاله 280 گرمی", "بستنی شیری روکشدار شاتوت کاله 80 گرمی", "بستنی چوبی قهوه با روکش دار شیری کاله 85 گرمی", "بستنی قهوه لیوانی کاله 100 گرمی", "بستنی وانیلی با تکه شکلات فوردو کاله 650 گرمی"]}, {"supermarket_name": "جانبو پاسداران قم (همواره تخفیف)", "lat": 34.611892353517, "lng": 50.867694046538, "products": ["بستنی چوبی یخی پرتقالی جیتو کاله 70 گرمی", "بستنی چوبی یخی لواشک آلو جیتو کاله 60 گرمی", "بستنی چوبی یخی بلوبری جیتو کاله 64 گرمی", "بستنی چوبی شیری کاله 70 گرمی", "بستنی چوبی وانیلی با روکش شکلات کاله 60 گرمی", "بستنی لیوانی معجون کاله 95 گرمی", "بستنی چوبی قهوه با روکش شیری کاله 85 گرمی", "بستنی لیوانی کاکایویی کاله 50 گرمی", "بستنی چوبی یخی فالوده جیتو کاله 64 گرمی", "بستنی شیری روکشدار شاتوت کاله 80 گرمی", "بستنی لیوانی وانیلی کاله 100 گرمی", "بستنی وانیلی کاله 1 لیتری", "بستنی پاستوریزه شیری نارگیلی کاله 57 گرمی", "بستنی شکلاتی کاله 1 لیتری", "بستنی چوبی عروسکی کاله 70 گرمی", "بستنی حصیری زعفرانی کاله 75 گرمی", "بستنی وانیلی سوربن کاله 70 گرمی", "بستنی شیری شکلاتی چوبی کاله (75 گرم)", "گز بستنی وانیلی روکش شکلات و پسته کاله (70 گرم)"]}, {"supermarket_name": "سوپرمارکت هایپر باران (اسدپور)", "lat": 34.629134, "lng": 50.915147, "products": ["بستنی وانیلی با باقلوا کاله 650 گرمی"]}, {"supermarket_name": "سوپرمارکت باران (۱۵ خرداد)", "lat": 34.644477, "lng": 50.911517, "products": ["بستنی چوبی یخی پرتقالی جیتو کاله 70 گرمی", "پروبستنی چوبی قهوه کاله پرو 60 گرمی", "بستنی چوبی قهوه با روکش شیری کاله 85 گرمی", "بستنی شکلاتی فوردو کاله 240 گرمی", "بستنی چوبی شکلاتی کاله 85 گرمی", "بستنی چوبی یخی شاتوتی کاله 60 گرمی", "بستنی لیوانی وانیلی کاله 100 گرمی", "بستنی لیوانی ژلاتو پسته فوردو کاله 300 گرمی", "بستنی وانیلی کاله 1 لیتری", "بستنی آدامسی جرقه ای کاله 55 گرمی", "بستنی چوبی زعفرانی با روکش شکلات پسته کاله 80 گرمی", "بستنی ژلاتو کارامل دلسه دلیچه فوردو کاله 300 گرمی", "بستنی چوبی دبل چاکلت اسپیتامن کاله 80 گرمی", "بستنی پسته ای فوردو کاله 650 گرمی", "بستنی میوه های قرمز فروتیس کاله 90 گرمی", "بستنی وانیلی کاکائویی کونگ فو پو کاله (65 گرم)", "بستنی لیوانی وانیلی بلیسیمو کاله پرو 100 گرمی", "بستنی خانواده انبه كاله ۵۵۰ گرمی", "بستنی لیوانی توت وحشی بلیسیمو کاله پرو 100 گرمی", "بستنی زعفرانی کاله 1 لیتری", "بستنی لیوانی وانیل توت فرنگی کاله 50 گرمی", "بستنی ليوانی شکلاتی پرو کاله 100 گرمی"]}, {"supermarket_name": "جانبو کشاورز قم (همواره تخفیف)", "lat": 34.654862, "lng": 50.84463, "products": ["بستنی چوبی یخی پرتقالی جیتو کاله 70 گرمی", "بستنی چوبی یخی لواشک آلو جیتو کاله 60 گرمی", "بستنی چوبی شیری کاله 70 گرمی", "بستنی چوبی وانیلی با روکش شکلات کاله 60 گرمی", "بستنی لیوانی معجون کاله 95 گرمی", "بستنی چوبی قهوه با روکش شیری کاله 85 گرمی", "بستنی لیوانی کاکایویی کاله 50 گرمی", "بستنی شیری روکشدار شاتوت کاله 80 گرمی", "بستنی لیوانی وانیلی کاله 100 گرمی", "بستنی پاستوریزه شیری نارگیلی کاله 57 گرمی", "بستنی شکلاتی کاله 1 لیتری", "بستنی چوبی عروسکی کاله 70 گرمی", "بستنی وانیلی سوربن کاله 70 گرمی", "بستنی شیری شکلاتی چوبی کاله (75 گرم)", "بستنی پذیرایی شکلاتی با ریپل شکلاتی کاله 500 گرمی", "بستنی قیفی شکلاتی سوربن کاله 80 گرمی"]}, {"supermarket_name": "سوپرمارکت هایپر افسر", "lat": 34.642907, "lng": 50.840736, "products": ["بستنی وانیلی کاله 1 لیتری", "بستنی شکلاتی کاله 1 لیتری", "بستنی لیوانی وانیلی بلیسیمو کاله پرو 100 گرمی", "پرو بستنی شکلات کاله 60 گرمی"]}, {"supermarket_name": "سوپرمارکت هایپر مارکت فردوس", "lat": 34.59931, "lng": 50.863651, "products": ["پروبستنی چوبی قهوه کاله پرو 60 گرمی"]}, {"supermarket_name": "سوپرمارکت جمیل (بلوار کریمی)", "lat": 34.594939566437, "lng": 50.864129662514, "products": ["بستنی چوبی قهوه با روکش دار شیری کاله 85 گرمی", "بستنی چوبی دبل چاکلت اسپیتامن کاله 80 گرمی"]}, {"supermarket_name": "فروشگاه هفت انسجام قم (همواره تخفیف)", "lat": 34.604795307804, "lng": 50.880464315414, "products": ["بستنی چوبی یخی لواشک آلو جیتو کاله 60 گرمی", "بستنی چوبی وانیلی با روکش شکلات کاله 60 گرمی", "بستنی لیوانی معجون کاله 95 گرمی", "بستنی لیوانی قهوه فوردو کاله 280 گرمی", "بستنی شیری روکشدار شاتوت کاله 80 گرمی", "بستنی چوبی قهوه با روکش دار شیری کاله 85 گرمی", "بستنی قهوه لیوانی کاله 100 گرمی", "بستنی وانیلی با تکه شکلات فوردو کاله 650 گرمی", "بستنی چوبی شکلاتی کاله 75 گرمی"]}, {"supermarket_name": "فروشگاه هفت پردیسان قم (همواره تخفیف)", "lat": 34.541668, "lng": 50.806528, "products": ["بستنی چوبی قهوه با روکش دار شیری کاله 85 گرمی"]}, {"supermarket_name": "سوپرمارکت هایپر شاهان", "lat": 34.601473, "lng": 50.836051, "products": ["بستنی چوبی یخی پرتقالی جیتو کاله 70 گرمی", "بستنی لیوانی قهوه کاله 80 گرمی", "بستنی چوبی یخی بلوبری جیتو کاله 64 گرمی", "پروبستنی چوبی قهوه کاله پرو 60 گرمی", "بستنی چوبی قهوه با روکش شیری کاله 85 گرمی", "بستنی لیوانی توت وحشی بلیسیمو کاله پرو 100 گرمی", "پرو بستنی شکلات کاله 60 گرمی", "بستنی چوبی گز رندو کاله 80 گرمی"]}, {"supermarket_name": "جانبو انسجام قم (همواره تخفیف)", "lat": 34.604645, "lng": 50.879971, "products": ["بستنی چوبی یخی لواشک آلو جیتو کاله 60 گرمی", "بستنی لیوانی قهوه کاله 80 گرمی", "بستنی چوبی یخی بلوبری جیتو کاله 64 گرمی", "بستنی چوبی وانیلی با روکش شکلات کاله 60 گرمی", "بستنی لیوانی معجون کاله 95 گرمی", "بستنی چوبی قهوه با روکش شیری کاله 85 گرمی", "بستنی لیوانی قهوه فوردو کاله 280 گرمی", "بستنی لیوانی کاکایویی کاله 50 گرمی", "بستنی چوبی یخی فالوده جیتو کاله 64 گرمی", "بستنی شیری روکشدار شاتوت کاله 80 گرمی", "بستنی لیوانی وانیلی کاله 100 گرمی", "بستنی وانیلی کاله 1 لیتری", "بستنی پاستوریزه شیری نارگیلی کاله 57 گرمی", "بستنی شکلاتی کاله 1 لیتری", "بستنی چوبی عروسکی کاله 70 گرمی", "بستنی حصیری زعفرانی کاله 75 گرمی", "بستنی چوبی دبل چاکلت اسپیتامن کاله 80 گرمی", "بستنی ژلاتو زعفران ، خامه و زرشک پسته فوردو کاله 300 گرمی"]}, {"supermarket_name": "سوپرمارکت آسمان", "lat": 34.592386, "lng": 50.850492, "products": ["بستنی شکلاتی کاله 1 لیتری", "بستنی وانیلی با تکه شکلات فوردو کاله 650 گرمی"]}, {"supermarket_name": "جانبو کیوان فر قم (همواره تخفیف)", "lat": 34.659633062721, "lng": 50.876905840469, "products": ["بستنی چوبی یخی پرتقالی جیتو کاله 70 گرمی", "بستنی چوبی یخی لواشک آلو جیتو کاله 60 گرمی", "بستنی چوبی یخی بلوبری جیتو کاله 64 گرمی", "بستنی چوبی وانیلی با روکش شکلات کاله 60 گرمی", "بستنی چوبی قهوه با روکش شیری کاله 85 گرمی", "بستنی لیوانی کاکایویی کاله 50 گرمی", "بستنی چوبی یخی فالوده جیتو کاله 64 گرمی", "بستنی لیوانی وانیلی کاله 100 گرمی", "بستنی وانیلی کاله 1 لیتری", "بستنی پاستوریزه شیری نارگیلی کاله 57 گرمی", "بستنی شکلاتی کاله 1 لیتری", "بستنی چوبی عروسکی کاله 70 گرمی", "بستنی حصیری زعفرانی کاله 75 گرمی", "بستنی چوبی دبل چاکلت اسپیتامن کاله 80 گرمی", "بستنی وانیلی سوربن کاله 70 گرمی"]}, {"supermarket_name": "سوپرمارکت خندان", "lat": 36.3061144, "lng": 50.0236628, "products": ["بستنی چوبی یخی بلوبری جیتو کاله 64 گرمی", "بستنی چوبی یخی کولا زرشک دراکولا جیتو‌ کاله 64 گرمی", "بستنی چوبی مینی مگنوم کاله 6 عددی", "بستنی ليوانی شکلاتی پرو کاله 100 گرمی", "پرو بستنی شکلات کاله 60 گرمی"]}, {"supermarket_name": "جانبو طالقانی قم (همواره تخفیف)", "lat": 34.638160138389, "lng": 50.897944271564, "products": ["بستنی چوبی یخی پرتقالی جیتو کاله 70 گرمی", "بستنی چوبی یخی لواشک آلو جیتو کاله 60 گرمی", "بستنی لیوانی قهوه کاله 80 گرمی", "بستنی چوبی یخی بلوبری جیتو کاله 64 گرمی", "بستنی چوبی شیری کاله 70 گرمی", "بستنی چوبی وانیلی با روکش شکلات کاله 60 گرمی", "بستنی چوبی قهوه با روکش شیری کاله 85 گرمی", "بستنی لیوانی کاکایویی کاله 50 گرمی", "بستنی چوبی یخی فالوده جیتو کاله 64 گرمی", "بستنی شیری روکشدار شاتوت کاله 80 گرمی", "بستنی وانیلی کاله 1 لیتری", "بستنی پاستوریزه شیری نارگیلی کاله 57 گرمی", "بستنی شکلاتی کاله 1 لیتری", "بستنی چوبی عروسکی کاله 70 گرمی", "بستنی حصیری زعفرانی کاله 75 گرمی", "بستنی وانیلی سوربن کاله 70 گرمی", "بستنی شیری شکلاتی چوبی کاله (75 گرم)", "گز بستنی وانیلی روکش شکلات و پسته کاله (70 گرم)"]}, {"supermarket_name": "سوپرمارکت یک دو سه (شعبه دو)", "lat": 36.31461, "lng": 50.0171286, "products": ["پروبستنی چوبی قهوه کاله پرو 60 گرمی", "بستنی لیوانی قهوه فوردو کاله 280 گرمی", "بستنی معجون فوردو کاله 280 گرمی", "بستنی وانیلی کاله 1 لیتری", "بستنی لیوانی توت وحشی بلیسیمو کاله پرو 100 گرمی"]}, {"supermarket_name": "سوپرمارکت یاس (میم مارکت سابق)", "lat": 36.3018034, "lng": 50.0224609, "products": ["پروبستنی چوبی قهوه کاله پرو 60 گرمی", "بستنی لیوانی معجون کاله 95 گرمی", "بستنی چوبی قهوه با روکش شیری کاله 85 گرمی", "بستنی تریپل چاکلت فوردو کاله 650 گرمی", "بستنی وانیلی کاله 1 لیتری", "بستنی شکلاتی کاله 1 لیتری", "بستنی چوبی زعفرانی با روکش شکلات پسته کاله 80 گرمی", "بستنی لیوانی لیمو چیز کیکی بلیسیمو کاله 100 گرمی", "بستنی قهوه با کیک براونی کاله 1 لیتری", "بستنی ژلاتو زعفران ، خامه و زرشک پسته فوردو کاله 300 گرمی", "بستنی لیوانی وانیلی بلیسیمو کاله پرو 100 گرمی", "بستنی چوبی کیم رندو کاله 80 گرمی", "بستنی ليوانی شکلاتی پرو کاله 100 گرمی", "پرو بستنی توت وحشی کاله 100 گرمی", "پرو بستنی شکلات کاله 60 گرمی"]}, {"supermarket_name": "فروشگاه هفت بابایی (همواره تخفیف)", "lat": 36.2969114, "lng": 50.0186039, "products": ["بستنی چوبی یخی لواشک آلو جیتو کاله 60 گرمی", "بستنی چوبی وانیلی با روکش شکلات کاله 60 گرمی", "بستنی لیوانی قهوه فوردو کاله 280 گرمی", "بستنی چوبی قهوه با روکش دار شیری کاله 85 گرمی"]}, {"supermarket_name": "فروشگاه هفت حکیم قزوین (همواره تخفیف)", "lat": 36.30979, "lng": 50.01815, "products": ["بستنی چوبی یخی پرتقالی جیتو کاله 70 گرمی", "بستنی چوبی یخی لواشک آلو جیتو کاله 60 گرمی", "بستنی چوبی قهوه با روکش دار شیری کاله 85 گرمی", "بستنی وانیلی با تکه شکلات فوردو کاله 650 گرمی", "بستنی چوبی شکلاتی کاله 75 گرمی", "بستنی لیوانی شکلاتی کاله 100 گرمی"]}, {"supermarket_name": "فروشگاه هفت جانبازان قزوین(همواره تخفیف)", "lat": 36.306068680408, "lng": 50.02669113037, "products": ["بستنی چوبی وانیلی با روکش شکلات کاله 60 گرمی", "بستنی لیوانی قهوه فوردو کاله 280 گرمی", "بستنی شیری روکشدار شاتوت کاله 80 گرمی", "بستنی چوبی قهوه با روکش دار شیری کاله 85 گرمی", "بستنی قهوه لیوانی کاله 100 گرمی", "بستنی وانیلی با تکه شکلات فوردو کاله 650 گرمی", "بستنی چوبی شکلاتی کاله 75 گرمی"]}, {"supermarket_name": "فروشگاه هفت پیروزی قزوین (همواره تخفیف)", "lat": 36.31026, "lng": 50.02597, "products": ["بستنی چوبی یخی پرتقالی جیتو کاله 70 گرمی", "بستنی چوبی یخی لواشک آلو جیتو کاله 60 گرمی", "بستنی لیوانی معجون کاله 95 گرمی", "بستنی شیری روکشدار شاتوت کاله 80 گرمی", "بستنی چوبی قهوه با روکش دار شیری کاله 85 گرمی", "بستنی وانیلی با تکه شکلات فوردو کاله 650 گرمی", "بستنی چوبی شکلاتی کاله 75 گرمی", "بستنی لیوانی شکلاتی فوردو کاله 280 گرمی"]}, {"supermarket_name": "فروشگاه هفت حکم آباد (همواره تخفیف)", "lat": 36.2705996, "lng": 50.0152502, "products": ["بستنی چوبی یخی لواشک آلو جیتو کاله 60 گرمی", "بستنی چوبی وانیلی با روکش شکلات کاله 60 گرمی", "بستنی لیوانی معجون کاله 95 گرمی", "بستنی لیوانی قهوه فوردو کاله 280 گرمی", "بستنی شیری روکشدار شاتوت کاله 80 گرمی", "بستنی چوبی قهوه با روکش دار شیری کاله 85 گرمی", "بستنی قهوه لیوانی کاله 100 گرمی", "بستنی چوبی شکلاتی کاله 75 گرمی"]}, {"supermarket_name": "سوپرمارکت یک دو سه", "lat": 36.266448065282, "lng": 50.018233093428, "products": ["بستنی چوبی یخی پرتقالی جیتو کاله 70 گرمی", "پروبستنی چوبی قهوه کاله پرو 60 گرمی", "بستنی چوبی قهوه با روکش شیری کاله 85 گرمی", "بستنی لیوانی قهوه فوردو کاله 280 گرمی", "بستنی معجون فوردو کاله 280 گرمی", "بستنی شکلاتی کاله 1 لیتری", "بستنی قهوه با کیک براونی کاله 1 لیتری", "بستنی لیوانی وانیلی بلیسیمو کاله پرو 100 گرمی", "بستنی ليوانی شکلاتی پرو کاله 100 گرمی", "پرو بستنی شکلات کاله 60 گرمی"]}, {"supermarket_name": "سوپرمارکت ولیعصر", "lat": 36.2663962, "lng": 50.0181985, "products": ["بستنی لیوانی لیمو چیز کیکی بلیسیمو کاله 100 گرمی", "بستنی تیرامیسو فوردو کاله 650 گرمی", "بسته ۶ عددی بستنی چوبی بادام زمینی با رگه کارامل اسپیتامن کاله 85 گرمی", "بستنی کره ای با تکه های گردو فوردو کاله (650 گرم)", "بستنی پسته ای فوردو کاله 650 گرمی", "بستنی لیوانی وانیلی بلیسیمو کاله پرو 100 گرمی", "بستنی لیوانی توت وحشی بلیسیمو کاله پرو 100 گرمی"]}, {"supermarket_name": "فروشگاه هفت تهران قدیم قزوین (همواره تخفیف)", "lat": 36.25929, "lng": 50.00707, "products": ["بستنی چوبی وانیلی با روکش شکلات کاله 60 گرمی", "بستنی تریپل چاکلت فوردو کاله 650 گرمی", "بستنی چوبی قهوه با روکش دار شیری کاله 85 گرمی", "بستنی چوبی شکلاتی کاله 75 گرمی"]}, {"supermarket_name": "فروشگاه هفت عدل قزوین (همواره تخفیف)", "lat": 36.277428, "lng": 50.006933, "products": ["بستنی چوبی یخی لواشک آلو جیتو کاله 60 گرمی", "بستنی لیوانی قهوه فوردو کاله 280 گرمی", "بستنی وانیلی با تکه شکلات فوردو کاله 650 گرمی", "بستنی چوبی شکلاتی کاله 75 گرمی", "بستنی لیوانی شکلاتی فوردو کاله 280 گرمی", "بستنی چای لوندرکاله 100 گرمی"]}, {"supermarket_name": "سوپرمارکت قایم", "lat": 36.2809718, "lng": 50.0119238, "products": ["بستنی چوبی یخی بلوبری جیتو کاله 64 گرمی", "پروبستنی چوبی قهوه کاله پرو 60 گرمی", "بستنی لیوانی معجون کاله 95 گرمی", "بستنی چوبی قهوه با روکش شیری کاله 85 گرمی", "بستنی تریپل چاکلت فوردو کاله 650 گرمی", "بستنی وانیلی کاله 1 لیتری", "بستنی شکلاتی کاله 1 لیتری", "بستنی چوبی زعفرانی با روکش شکلات پسته کاله 80 گرمی", "بستنی چوبی دبل چاکلت اسپیتامن کاله 80 گرمی", "بسته ۶ عددی بستنی چوبی بادام زمینی با رگه کارامل اسپیتامن کاله 85 گرمی", "بستنی وانیلی با کیک براونی کاله 1 لیتری", "بستنی چوبی بادام زمینی و کارامل اسپیتامن کاله 85 گرمی", "بستنی زعفرانی با پسته و خامه فوردو کاله 650 گرمی", "بستنی توت فرنگی کاله (500 گرم)", "بستنی طالبی كاله 1 لیتری", "بستنی خانواده انبه كاله ۵۵۰ گرمی", "بستنی وانیلی کاله 1.1 کیلوگرمی", "بستنی لیوانی توت وحشی بلیسیمو کاله پرو 100 گرمی", "بستنی زعفرانی کاله 1 لیتری", "بستنی شکلاتی کاله 2 لیتری", "بستنی میوه های فصل کاله 750 گرمی", "بستنی چوبی تیرامیسو اسپیتامن کاله 82 گرمی", "بستنی چوبی روکش دار شکلاتی رندو کاله 80 گرمی", "پرو بستنی شکلات کاله 60 گرمی"]}]