[{"supermarket_name": "سوپرمارکت هایپر نوین", "lat": 34.554733, "lng": 50.8116, "products": ["بستنی وانیلی کاله 1 لیتری", "بستنی شکلاتی کاله 1 لیتری", "بستنی چوبی زعفرانی با روکش شکلات پسته کاله 80 گرمی", "بستنی لیوانی لیمو چیز کیکی بلیسیمو کاله 100 گرمی", "بستنی چوبی عروسکی کاله 70 گرمی", "بستنی چوبی دبل چاکلت اسپیتامن کاله 80 گرمی", "بستنی قهوه با کیک براونی کاله 1 لیتری", "بسته ۶ عددی بستنی چوبی بادام زمینی با رگه کارامل اسپیتامن کاله 85 گرمی", "بستنی قیفی شکلاتی کاله 120 گرمی", "بستنی وانیلی با کیک براونی کاله 1 لیتری", "بستنی وانیلی سوربن کاله 70 گرمی", "بستنی چوبی هندوانه کاله 58 گرمی", "بستنی لیوانی شکلاتی فوردو کاله 280 گرمی", "بستنی میوه های قرمز فروتیس کاله 90 گرمی", "بستنی وانیلی کاکائویی کونگ فو پو کاله (65 گرم)", "بستنی توت فرنگی کاله (500 گرم)", "بستنی طالبی كاله 1 لیتری", "بستنی خانواده انبه كاله ۵۵۰ گرمی", "بستنی زعفرانی کاله 1 لیتری", "بستنی تیرامیسو چوبی اسپیتامن کاله (55 گرم)", "بستنی روکش دار شکلات و بادام اسپیتامن مینی مگنوم کاله 54 گرمی"]}, {"supermarket_name": "سوپرمارکت پارسی", "lat": 34.564741, "lng": 50.817981, "products": ["بستنی تریپل چاکلت فوردو کاله 650 گرمی", "بستنی لیوانی شکلاتی بلیسیمو کاله پرو 100 گرمی"]}, {"supermarket_name": "سوپرمارکت مرسا (پردیسان)", "lat": 34.5474174, "lng": 50.7983608, "products": ["بستنی چوبی یخی پرتقالی جیتو کاله 70 گرمی", "بستنی چوبی یخی لواشک آلو جیتو کاله 60 گرمی", "بستنی لیوانی قهوه کاله 80 گرمی", "بستنی چوبی شیری کاله 70 گرمی", "بستنی چوبی شکلاتی میلکی کاله 70 گرمی", "پروبستنی چوبی قهوه کاله پرو 60 گرمی", "بستنی چوبی قهوه با روکش شیری کاله 85 گرمی", "بستنی لیوانی قهوه فوردو کاله 280 گرمی", "بستنی معجون فوردو کاله 280 گرمی", "بستنی لیوانی وانیلی کاله 100 گرمی", "بستنی وانیلی کاله 1 لیتری", "بستنی پاستوریزه شیری نارگیلی کاله 57 گرمی", "بستنی شکلاتی کاله 1 لیتری", "بستنی آدامسی جرقه ای کاله 55 گرمی", "بستنی قهوه با کیک براونی کاله 1 لیتری", "بستنی وانیلی با کیک براونی کاله 1 لیتری", "بستنی لیوانی شکلاتی فوردو کاله 280 گرمی", "بستنی طالبی كاله 1 لیتری", "بستنی زعفرانی کاله 1 لیتری", "بستنی چوبی روکش دار شکلاتی رندو کاله 80 گرمی"]}, {"supermarket_name": "سوپرمارکت پدر خوب", "lat": 34.672023324333, "lng": 50.869933962822, "products": ["بستنی وانیلی کاله 1 لیتری", "بستنی كوكي فودرو كاله 650 گرمی", "بسته ۶ عددی بستنی چوبی بادام زمینی با رگه کارامل اسپیتامن کاله 85 گرمی", "بستنی پسته ای فوردو کاله 650 گرمی", "بستنی توت فرنگی کاله (500 گرم)", "بستنی زعفرانی کاله 1 لیتری"]}, {"supermarket_name": "سوپرمارکت هایپر ترنج", "lat": 34.666935, "lng": 50.887799, "products": ["بستنی چوبی یخی پرتقالی جیتو کاله 70 گرمی", "بستنی لیوانی معجون کاله 95 گرمی", "بستنی لیوانی کاکایویی کاله 50 گرمی", "بستنی تریپل چاکلت فوردو کاله 650 گرمی", "بستنی چوبی یخی شاتوتی کاله 60 گرمی", "بستنی لیوانی وانیلی کاله 100 گرمی", "بستنی وانیلی کاله 1 لیتری", "بستنی شکلاتی کاله 1 لیتری", "بستنی حصیری زعفرانی کاله 75 گرمی", "بستنی چوبی بادام زمینی و کارامل اسپیتامن کاله 85 گرمی", "بستنی لیوانی شکلاتی فوردو کاله 280 گرمی", "بستنی توت فرنگی کاله (500 گرم)", "بستنی طالبی كاله 1 لیتری", "بستنی خانواده انبه كاله ۵۵۰ گرمی", "بستنی لیوانی وانیل توت فرنگی کاله 50 گرمی", "بستنی چوبی تیرامیسو اسپیتامن کاله 82 گرمی"]}, {"supermarket_name": "سوپرمارکت هایپر ۲۸", "lat": 34.664394, "lng": 50.864305, "products": ["پروبستنی چوبی قهوه کاله پرو 60 گرمی", "بستنی لیوانی وانیلی بلیسیمو کاله پرو 100 گرمی", "بستنی لیوانی توت وحشی بلیسیمو کاله پرو 100 گرمی", "بستنی ليوانی شکلاتی پرو کاله 100 گرمی", "پرو بستنی شکلات کاله 60 گرمی"]}, {"supermarket_name": "سوپرمارکت چلسی (باجک)", "lat": 34.660331, "lng": 50.906997, "products": ["پروبستنی چوبی قهوه کاله پرو 60 گرمی", "بستنی لیوانی معجون کاله 95 گرمی", "بستنی چوبی قهوه با روکش شیری کاله 85 گرمی", "بستنی لیوانی قهوه فوردو کاله 280 گرمی", "بستنی معجون فوردو کاله 280 گرمی", "بستنی تریپل چاکلت فوردو کاله 650 گرمی", "بستنی چوبی زعفرانی با روکش شکلات پسته کاله 80 گرمی", "بستنی چوبی دبل چاکلت اسپیتامن کاله 80 گرمی", "بستنی قهوه با کیک براونی کاله 1 لیتری", "بستنی وانیلی با کیک براونی کاله 1 لیتری", "بستنی چوبی بادام زمینی و کارامل اسپیتامن کاله 85 گرمی", "بستنی لیوانی شکلاتی فوردو کاله 280 گرمی", "بستنی لیوانی وانیلی بلیسیمو کاله پرو 100 گرمی", "بستنی پرتقالی چوبی کاله (90 گرم)", "بستنی چای لوندرکاله 100 گرمی", "بستنی ليوانی شکلاتی پرو کاله 100 گرمی", "پرو بستنی شکلات کاله 60 گرمی", "بستنی لیوانی کاپوچینو کاله 90 گرمی"]}, {"supermarket_name": "سوپرمارکت آوینا", "lat": 34.674638888889, "lng": 50.877166666667, "products": ["بستنی چوبی قهوه با روکش شیری کاله 85 گرمی", "بستنی لیوانی قهوه فوردو کاله 280 گرمی", "بستنی شکلاتی فوردو کاله 240 گرمی", "بستنی تریپل چاکلت فوردو کاله 650 گرمی", "بستنی چوبی شکلاتی کاله 85 گرمی", "بستنی چوبی یخی شاتوتی کاله 60 گرمی", "بستنی وانیلی کاله 1 لیتری", "بستنی پاستوریزه شیری نارگیلی کاله 57 گرمی", "بستنی چوبی هندوانه کاله 58 گرمی", "بستنی چوبی وانیلی بلوبری کاله 60 گرمی", "بستنی میوه های قرمز فروتیس کاله 90 گرمی", "بستنی وانیلی کاکائویی کونگ فو پو کاله (65 گرم)", "بستنی لیوانی وانیلی بلیسیمو کاله پرو 100 گرمی", "بستنی وانیلی کاله 1.1 کیلوگرمی", "بستنی وانیلی با شهد توت فرنگی پذیرایی کاله (500 گرم)", "بستنی قیفی وانیلی سوربن کاله 80 گرمی", "بستنی قیفی شکلاتی سوربن کاله 80 گرمی", "بستنی یخی لیمو نعناع جیتو کاله 105 گرمی"]}, {"supermarket_name": "سوپرمارکت هایپر افسر", "lat": 34.642907, "lng": 50.840736, "products": ["بستنی وانیلی کاله 1 لیتری", "بستنی شکلاتی کاله 1 لیتری", "بستنی لیوانی وانیلی بلیسیمو کاله پرو 100 گرمی", "پرو بستنی شکلات کاله 60 گرمی"]}, {"supermarket_name": "سوپرمارکت 90", "lat": 34.611726, "lng": 50.864947, "products": ["بستنی لیوانی قهوه فوردو کاله 280 گرمی", "بستنی شکلاتی فوردو کاله 240 گرمی", "بستنی تریپل چاکلت فوردو کاله 650 گرمی", "بستنی چوبی شکلاتی کاله 85 گرمی", "بستنی ژلاتو زعفران ، خامه و زرشک پسته فوردو کاله 300 گرمی", "بستنی آلو ژلاتو فوردو کاله 300 گرمی", "بستنی خانواده انبه كاله ۵۵۰ گرمی", "بستنی چوبی زعفرانی با روکش شکلات زعفرانی و پسته کاله 82 گرمی"]}, {"supermarket_name": "سوپرمارکت سحر (زنبیل آباد)", "lat": 34.605393, "lng": 50.861236, "products": ["بسته ۶ عددی بستنی چوبی بادام زمینی با رگه کارامل اسپیتامن کاله 85 گرمی"]}, {"supermarket_name": "سوپرمارکت می مارکت", "lat": 34.600934, "lng": 50.882292, "products": ["بستنی لیوانی قهوه فوردو کاله 280 گرمی", "بستنی معجون فوردو کاله 280 گرمی", "بستنی تریپل چاکلت فوردو کاله 650 گرمی", "بستنی كوكي فودرو كاله 650 گرمی", "بستنی تیرامیسو فوردو کاله 650 گرمی", "بستنی قهوه با کیک براونی کاله 1 لیتری", "بستنی وانیلی با کیک براونی کاله 1 لیتری", "بستنی پسته ای فوردو کاله 650 گرمی", "بستنی آلو ژلاتو فوردو کاله 300 گرمی", "بستنی لیوانی شکلاتی فوردو کاله 280 گرمی", "بستنی وانیلی با باقلوا کاله 650 گرمی", "بستنی خانواده انبه كاله ۵۵۰ گرمی", "بستنی لیوانی توت وحشی بلیسیمو کاله پرو 100 گرمی", "بستنی زعفرانی کاله 1 لیتری", "بسته 6 عددی بستنی چوبی شکلاتی کاله 510 گرمی"]}, {"supermarket_name": "سوپرمارکت جم", "lat": 34.610577, "lng": 50.851974, "products": ["بستنی لیوانی معجون کاله 95 گرمی", "بستنی چوبی قهوه با روکش شیری کاله 85 گرمی", "بستنی چوبی شکلاتی کاله 85 گرمی", "بستنی ژلاتو لیوانی شاه توت فوردو کاله 400 گرمی", "بستنی چوبی دبل چاکلت اسپیتامن کاله 80 گرمی", "بستنی چوبی بادام زمینی و کارامل اسپیتامن کاله 85 گرمی", "بستنی چوبی وانیلی بلوبری کاله 60 گرمی", "بستنی آلو ژلاتو فوردو کاله 300 گرمی", "بستنی میوه های قرمز فروتیس کاله 90 گرمی", "بستنی چای لوندرکاله 100 گرمی", "بستنی لیوانی باقلوا کاله 110 گرمی", "بستنی چوبی زعفرانی با روکش شکلات زعفرانی و پسته کاله 82 گرمی", "بستنی چوبی گز رندو کاله 80 گرمی"]}, {"supermarket_name": "فروشگاه هفت انسجام قم (همواره تخفیف)", "lat": 34.604795307804, "lng": 50.880464315414, "products": ["بستنی چوبی یخی لواشک آلو جیتو کاله 60 گرمی", "بستنی چوبی وانیلی با روکش شکلات کاله 60 گرمی", "بستنی لیوانی معجون کاله 95 گرمی", "بستنی لیوانی قهوه فوردو کاله 280 گرمی", "بستنی شیری روکشدار شاتوت کاله 80 گرمی", "بستنی چوبی قهوه با روکش دار شیری کاله 85 گرمی"]}, {"supermarket_name": "سوپرمارکت سید", "lat": 34.624289, "lng": 50.885574, "products": ["پروبستنی چوبی قهوه کاله پرو 60 گرمی", "بستنی لیوانی وانیلی بلیسیمو کاله پرو 100 گرمی", "پرو بستنی توت وحشی کاله 100 گرمی", "پرو بستنی شکلات کاله 60 گرمی", "بستنی ليوانی شکلاتی پرو کاله 100 گرمی"]}, {"supermarket_name": "فروشگاه هفت صفاشهر (همواره تخفیف)", "lat": 34.609475, "lng": 50.84006, "products": ["بستنی چوبی وانیلی با روکش شکلات کاله 60 گرمی", "بستنی لیوانی معجون کاله 95 گرمی", "بستنی لیوانی قهوه فوردو کاله 280 گرمی", "بستنی تریپل چاکلت فوردو کاله 650 گرمی", "بستنی چوبی قهوه با روکش دار شیری کاله 85 گرمی", "بستنی قهوه لیوانی کاله 100 گرمی", "بستنی وانیلی با تکه شکلات فوردو کاله 650 گرمی", "بستنی چوبی شکلاتی کاله 75 گرمی"]}, {"supermarket_name": "سوپرمارکت هایپر مارکت فردوس", "lat": 34.59931, "lng": 50.863651, "products": ["پروبستنی چوبی قهوه کاله پرو 60 گرمی", "بستنی قهوه با کیک براونی کاله 1 لیتری", "بستنی چوبی روکش دار شکلاتی رندو کاله 80 گرمی"]}, {"supermarket_name": "سوپرمارکت جمیل (بلوار کریمی)", "lat": 34.594939566437, "lng": 50.864129662514, "products": ["بستنی چوبی قهوه با روکش دار شیری کاله 85 گرمی", "بستنی چوبی دبل چاکلت اسپیتامن کاله 80 گرمی", "بستنی میوه های قرمز فروتیس کاله 90 گرمی"]}, {"supermarket_name": "سوپرمارکت بلوار", "lat": 34.629886, "lng": 50.861592, "products": ["بستنی چوبی شکلاتی کاله 85 گرمی", "بستنی وانیلی کاله 1 لیتری", "بستنی چوبی زعفرانی با روکش شکلات پسته کاله 80 گرمی", "بستنی توت فرنگی کاله (500 گرم)", "بستنی لیوانی وانیلی بلیسیمو کاله پرو 100 گرمی", "بستنی لیوانی توت وحشی بلیسیمو کاله پرو 100 گرمی"]}, {"supermarket_name": "سوپرمارکت بهار (حرم)", "lat": 34.640049, "lng": 50.874442, "products": ["بستنی چوبی وانیلی با روکش شکلات کاله 60 گرمی", "بستنی لیوانی معجون کاله 95 گرمی", "بستنی لیوانی کاکایویی کاله 50 گرمی", "بستنی لیوانی وانیلی کاله 100 گرمی", "بستنی شکلاتی کاله 1 لیتری", "بستنی آدامسی جرقه ای کاله 55 گرمی", "بستنی قیفی شکلاتی کاله 120 گرمی", "بستنی وانیلی سوربن کاله 70 گرمی", "بستنی چوبی هندوانه کاله 58 گرمی", "بستنی وانیلی کاکائویی کونگ فو پو کاله (65 گرم)", "بستنی طالبی كاله 1 لیتری", "بستنی خانواده انبه كاله ۵۵۰ گرمی", "بستنی لیوانی کاپوچینو کاله 90 گرمی", "بستنی لیوانی زعفرانی کاله 50 گرمی", "بستنی لیوانی وانیل توت فرنگی کاله 50 گرمی", "بستنی چوبی عروسکی توپی کاله 50 گرمی"]}, {"supermarket_name": "فروشگاه هفت بسیج (همواره تخفیف)", "lat": 34.625957, "lng": 50.884234, "products": ["بستنی چوبی وانیلی با روکش شکلات کاله 60 گرمی", "بستنی لیوانی قهوه فوردو کاله 280 گرمی", "بستنی شیری روکشدار شاتوت کاله 80 گرمی", "بستنی چوبی قهوه با روکش دار شیری کاله 85 گرمی", "بستنی قهوه لیوانی کاله 100 گرمی", "بستنی وانیلی با تکه شکلات فوردو کاله 650 گرمی", "بستنی چوبی شکلاتی کاله 75 گرمی"]}, {"supermarket_name": "سوپرمارکت هپی مارکت", "lat": 34.599518, "lng": 50.84057, "products": ["پروبستنی چوبی قهوه کاله پرو 60 گرمی", "بستنی لیوانی قهوه فوردو کاله 280 گرمی", "بستنی چوبی شکلاتی کاله 85 گرمی", "بستنی لیوانی لیمو چیز کیکی بلیسیمو کاله 100 گرمی", "بستنی لیوانی وانیلی بلیسیمو کاله پرو 100 گرمی", "پرو بستنی شکلات کاله 60 گرمی", "بستنی ليوانی شکلاتی پرو کاله 100 گرمی"]}, {"supermarket_name": "سوپرمارکت مرسا (سالاریه)", "lat": 34.6108532, "lng": 50.8447499, "products": ["بستنی لیوانی وانیلی بلیسیمو کاله پرو 100 گرمی", "بستنی ليوانی شکلاتی پرو کاله 100 گرمی"]}, {"supermarket_name": "سوپرمارکت هایپر باران (اسدپور)", "lat": 34.629134, "lng": 50.915147, "products": ["بستنی تریپل چاکلت فوردو کاله 650 گرمی", "بستنی وانیلی کاله 1 لیتری", "بستنی وانیلی با باقلوا کاله 650 گرمی", "بستنی وانیلی با شهد توت فرنگی پذیرایی کاله (500 گرم)"]}, {"supermarket_name": "سوپرمارکت آسمان", "lat": 34.592386, "lng": 50.850492, "products": ["بستنی شکلاتی کاله 1 لیتری", "بستنی وانیلی با تکه شکلات فوردو کاله 650 گرمی"]}, {"supermarket_name": "سوپرمارکت هایپر شاهان", "lat": 34.601473, "lng": 50.836051, "products": ["بستنی چوبی یخی پرتقالی جیتو کاله 70 گرمی", "بستنی چوبی یخی لواشک آلو جیتو کاله 60 گرمی", "بستنی لیوانی قهوه کاله 80 گرمی", "بستنی چوبی یخی بلوبری جیتو کاله 64 گرمی", "پروبستنی چوبی قهوه کاله پرو 60 گرمی", "بستنی چوبی قهوه با روکش شیری کاله 85 گرمی", "بستنی لیوانی توت وحشی بلیسیمو کاله پرو 100 گرمی", "پرو بستنی شکلات کاله 60 گرمی", "بستنی چوبی گز رندو کاله 80 گرمی"]}, {"supermarket_name": "فروشگاه هفت پردیسان قم (همواره تخفیف)", "lat": 34.541668, "lng": 50.806528, "products": ["بستنی چوبی قهوه با روکش دار شیری کاله 85 گرمی", "بستنی وانیلی با تکه شکلات فوردو کاله 650 گرمی"]}, {"supermarket_name": "سوپرمارکت باران (۱۵ خرداد)", "lat": 34.644477, "lng": 50.911517, "products": ["بستنی چوبی یخی پرتقالی جیتو کاله 70 گرمی", "پروبستنی چوبی قهوه کاله پرو 60 گرمی", "بستنی چوبی قهوه با روکش شیری کاله 85 گرمی", "بستنی لیوانی قهوه فوردو کاله 280 گرمی", "بستنی چوبی یخی زرشک جیتو کاله 70 گرمی", "بستنی چوبی شکلاتی کاله 85 گرمی", "بستنی چوبی یخی شاتوتی کاله 60 گرمی", "بستنی لیوانی وانیلی کاله 100 گرمی", "بستنی لیوانی ژلاتو پسته فوردو کاله 300 گرمی", "بستنی شکلاتی کاله 1 لیتری", "بستنی آدامسی جرقه ای کاله 55 گرمی", "بستنی چوبی زعفرانی با روکش شکلات پسته کاله 80 گرمی", "بستنی ژلاتو کارامل دلسه دلیچه فوردو کاله 300 گرمی", "بستنی پسته ای فوردو کاله 650 گرمی", "بستنی میوه های قرمز فروتیس کاله 90 گرمی", "بستنی وانیلی کاکائویی کونگ فو پو کاله (65 گرم)", "بستنی خانواده انبه كاله ۵۵۰ گرمی", "بستنی لیوانی توت وحشی بلیسیمو کاله پرو 100 گرمی", "بستنی زعفرانی کاله 1 لیتری", "بستنی ليوانی شکلاتی پرو کاله 100 گرمی"]}, {"supermarket_name": "سوپرمارکت یاس (میم مارکت سابق)", "lat": 36.3018034, "lng": 50.0224609, "products": ["پروبستنی چوبی قهوه کاله پرو 60 گرمی", "بستنی لیوانی معجون کاله 95 گرمی", "بستنی چوبی قهوه با روکش شیری کاله 85 گرمی", "بستنی تریپل چاکلت فوردو کاله 650 گرمی", "بستنی لیوانی شکلاتی بلیسیمو کاله پرو 100 گرمی", "بستنی وانیلی کاله 1 لیتری", "بستنی شکلاتی کاله 1 لیتری", "بستنی چوبی زعفرانی با روکش شکلات پسته کاله 80 گرمی", "بستنی لیوانی لیمو چیز کیکی بلیسیمو کاله 100 گرمی", "بستنی قهوه با کیک براونی کاله 1 لیتری", "بستنی وانیلی با کیک براونی کاله 1 لیتری", "بستنی ژلاتو زعفران ، خامه و زرشک پسته فوردو کاله 300 گرمی", "بستنی لیوانی وانیلی بلیسیمو کاله پرو 100 گرمی", "بستنی چوبی کیم رندو کاله 80 گرمی", "بستنی ليوانی شکلاتی پرو کاله 100 گرمی", "پرو بستنی شکلات کاله 60 گرمی", "بستنی چوبی گز رندو کاله 80 گرمی", "پرو بستنی توت وحشی کاله 100 گرمی"]}, {"supermarket_name": "فروشگاه هفت حکیم قزوین (همواره تخفیف)", "lat": 36.30979, "lng": 50.01815, "products": ["بستنی چوبی یخی پرتقالی جیتو کاله 70 گرمی", "بستنی چوبی یخی لواشک آلو جیتو کاله 60 گرمی", "بستنی لیوانی معجون کاله 95 گرمی", "بستنی چوبی قهوه با روکش دار شیری کاله 85 گرمی", "بستنی وانیلی با تکه شکلات فوردو کاله 650 گرمی", "بستنی چوبی شکلاتی کاله 75 گرمی", "بستنی لیوانی شکلاتی کاله 100 گرمی"]}, {"supermarket_name": "فروشگاه هفت جانبازان قزوین(همواره تخفیف)", "lat": 36.306068680408, "lng": 50.02669113037, "products": ["بستنی شیری روکشدار شاتوت کاله 80 گرمی", "بستنی چوبی قهوه با روکش دار شیری کاله 85 گرمی", "بستنی وانیلی با تکه شکلات فوردو کاله 650 گرمی", "بستنی چوبی شکلاتی کاله 75 گرمی"]}, {"supermarket_name": "فروشگاه هفت پیروزی قزوین (همواره تخفیف)", "lat": 36.31026, "lng": 50.02597, "products": ["بستنی چوبی یخی پرتقالی جیتو کاله 70 گرمی", "بستنی چوبی یخی لواشک آلو جیتو کاله 60 گرمی", "بستنی لیوانی معجون کاله 95 گرمی", "بستنی شیری روکشدار شاتوت کاله 80 گرمی", "بستنی چوبی قهوه با روکش دار شیری کاله 85 گرمی", "بستنی وانیلی با تکه شکلات فوردو کاله 650 گرمی", "بستنی چوبی شکلاتی کاله 75 گرمی", "بستنی لیوانی شکلاتی فوردو کاله 280 گرمی", "بستنی لیوانی شکلاتی کاله 100 گرمی"]}, {"supermarket_name": "سوپرمارکت خندان", "lat": 36.3061144, "lng": 50.0236628, "products": ["بستنی چوبی یخی کولا زرشک دراکولا جیتو‌ کاله 64 گرمی", "بستنی چوبی مینی مگنوم کاله 6 عددی", "بستنی ليوانی شکلاتی پرو کاله 100 گرمی", "پرو بستنی شکلات کاله 60 گرمی"]}, {"supermarket_name": "سوپرمارکت یک دو سه (شعبه دو)", "lat": 36.31461, "lng": 50.0171286, "products": ["پروبستنی چوبی قهوه کاله پرو 60 گرمی", "بستنی وانیلی کاله 1 لیتری"]}]