[{"supermarket_name": "فروشگاه هفت شیخلر شهریار (همواره تخفیف)", "lat": 35.66106, "lng": 51.05426, "products": ["بستنی چوبی یخی پرتقالی جیتو کاله 70 گرمی", "بستنی چوبی یخی لواشک آلو جیتو کاله 60 گرمی", "بستنی لیوانی معجون کاله 95 گرمی", "بستنی لیوانی قهوه فوردو کاله 280 گرمی", "بستنی شیری روکشدار شاتوت کاله 80 گرمی", "بستنی چوبی قهوه با روکش دار شیری کاله 85 گرمی", "بستنی چوبی شکلاتی کاله 75 گرمی", "بستنی لیوانی شکلاتی فوردو کاله 280 گرمی"]}, {"supermarket_name": "فروشگاه هفت کیومرثیه شهریار (همواره تخفیف)", "lat": 35.658144, "lng": 51.061649, "products": ["بستنی چوبی یخی پرتقالی جیتو کاله 70 گرمی", "بستنی چوبی یخی لواشک آلو جیتو کاله 60 گرمی", "بستنی چوبی وانیلی با روکش شکلات کاله 60 گرمی", "بستنی لیوانی معجون کاله 95 گرمی", "بستنی تریپل چاکلت فوردو کاله 650 گرمی", "بستنی شیری روکشدار شاتوت کاله 80 گرمی", "بستنی چوبی قهوه با روکش دار شیری کاله 85 گرمی", "بستنی قهوه لیوانی کاله 100 گرمی", "بستنی وانیلی با تکه شکلات فوردو کاله 650 گرمی", "بستنی چوبی شکلاتی کاله 75 گرمی", "بستنی لیوانی شکلاتی فوردو کاله 280 گرمی"]}, {"supermarket_name": "سوپرمارکت مهرسام", "lat": 35.656412, "lng": 51.055918, "products": ["بستنی چوبی بادام زمینی و کارامل اسپیتامن کاله 85 گرمی"]}, {"supermarket_name": "فروشگاه هفت میعاد اندیشه (همواره تخفیف)", "lat": 35.68256, "lng": 51.0177, "products": ["بستنی لیوانی معجون کاله 95 گرمی", "بستنی شیری روکشدار شاتوت کاله 80 گرمی", "بستنی چوبی قهوه با روکش دار شیری کاله 85 گرمی", "بستنی وانیلی کاله 1 لیتری"]}, {"supermarket_name": "فروشگاه هفت شهرک مریم اندیشه (همواره تخفیف)", "lat": 35.66864, "lng": 51.00928, "products": ["بستنی لیوانی معجون کاله 95 گرمی", "بستنی لیوانی قهوه فوردو کاله 280 گرمی", "بستنی تریپل چاکلت فوردو کاله 650 گرمی", "بستنی چوبی قهوه با روکش دار شیری کاله 85 گرمی", "بستنی قهوه لیوانی کاله 100 گرمی", "بستنی وانیلی با تکه شکلات فوردو کاله 650 گرمی", "بستنی لیوانی شکلاتی فوردو کاله 280 گرمی"]}, {"supermarket_name": "سوپرمارکت هایپر اندیشه", "lat": 35.672948, "lng": 51.009854, "products": ["بستنی معجون فوردو کاله 280 گرمی", "بستنی چوبی شکلاتی کاله 85 گرمی", "بستنی چوبی قهوه با روکش دار شیری کاله 85 گرمی", "بستنی چوبی یخی کولا زرشک دراکولا جیتو‌ کاله 64 گرمی", "بستنی وانیلی کاله 1 لیتری", "بستنی شکلاتی کاله 1 لیتری", "بستنی چوبی زعفرانی با روکش شکلات پسته کاله 80 گرمی", "بستنی قهوه با کیک براونی کاله 1 لیتری", "بستنی وانیلی با کیک براونی کاله 1 لیتری", "بستنی چوبی بادام زمینی و کارامل اسپیتامن کاله 85 گرمی", "بستنی وانیلی کاله 1.1 کیلوگرمی", "بستنی پذیرایی شکلاتی با ریپل شکلاتی کاله 500 گرمی", "بستنی شکلاتی کاله 2 لیتری", "بستنی وانیلی با شهد توت فرنگی پذیرایی کاله (500 گرم)", "بستنی آلو یخی کاله (70 گرم)", "بستنی لیوانی وانیلی کاله 60 گرمی", "بستنی شکلاتی کاله (یک لیتر)", "بستنی لیوانی شکلاتی وانیلی کاله 55 گرمی"]}, {"supermarket_name": "گندم فاز یکم 7 اندیشه (همواره تخفیف)", "lat": 35.681496, "lng": 51.019266, "products": ["بستنی چوبی یخی بلوبری جیتو کاله 70 گرمی", "بستنی چوبی موزی با روکش شکلاتی کاله 60 گرمی", "بستنی چوبی یخی دراکولا جیتو کاله 70 گرمی", "بستنی پرتقالی چوبی کاله (70 گرم)", "بستنی آلو یخی کاله (70 گرم)", "بستنی چوبی هندوانه‌ای کاله 60 گرمی"]}, {"supermarket_name": "فروشگاه هفت ولیعصر خادم آباد (همواره تخفیف)", "lat": 35.635437, "lng": 51.13036, "products": ["بستنی چوبی یخی لواشک آلو جیتو کاله 60 گرمی", "بستنی چوبی وانیلی با روکش شکلات کاله 60 گرمی", "بستنی لیوانی معجون کاله 95 گرمی", "بستنی شیری روکشدار شاتوت کاله 80 گرمی", "بستنی چوبی قهوه با روکش دار شیری کاله 85 گرمی", "بستنی چوبی شکلاتی کاله 75 گرمی", "بستنی لیوانی شکلاتی کاله 100 گرمی"]}, {"supermarket_name": "سوپرمارکت 20 مارکت", "lat": 35.70134, "lng": 51.039659, "products": ["بستنی لیوانی لیمو چیز کیکی بلیسیمو کاله 100 گرمی", "بسته ۶ عددی بستنی چوبی بادام زمینی با رگه کارامل اسپیتامن کاله 85 گرمی", "بستنی لیوانی وانیلی بلیسیمو کاله پرو 100 گرمی"]}, {"supermarket_name": "فروشگاه هفت شهرک صدف(همواره تخفیف)", "lat": 35.696225, "lng": 51.03967, "products": ["بستنی چوبی قهوه با روکش دار شیری کاله 85 گرمی", "بستنی قهوه لیوانی کاله 100 گرمی", "بستنی چوبی شکلاتی کاله 75 گرمی"]}]